[


{

	"id": 1000,
	"slug": "america",
	"title": "America",
	"length": 4,
	
	
	"items" : [{
		"id": 1100,
		"slug": "us",
		"title": "United States",
			
		"items" : [{
			"id": 1110,
			"slug": "new-york",
			"title": "New York",
			
			"items" : [{
				"id": 1111,
				"slug": "madison",
				"title": "C&eacute;line store",
				"store": true,
				
				"street": "MADISON AVENUE",
				"streetnumber": "870 MADISON AVENUE",
				"postcode": "",
				"city": "NEW YORK",
				
				"phone": "+ 1 212 535 3703",
				"openingtimes": "MONDAY TO FRIDAY: 10:00AM – 08:00PM<br />SATURDAY: 10:00AM – 07:00PM<br />SUNDAY: 11:00AM – 06:00PM",
				
				"image": ".\/uploads\/store_paris.jpg",
				
				"latlong": "40.770973,-73.966232"
			}, {
				"id": 1112,
				"slug": "bergdorf-goodman",
				"title": "BERGDORF GOODMAN",
				"store": true,
				
				"street": "FIFTH AVENUE",
				"streetnumber": "754 FIFTH AVENUE",
				"postcode": "",
				"city": "NEW YORK",
				
				"phone": "+ 1 212 753 7300",
				"openingtimes": "MONDAY TO FRIDAY: 10:00AM – 08:00PM<br />SATURDAY: 10:00AM – 07:00PM<br />SUNDAY: 11:00AM – 06:00PM",
				
				"latlong": "40.763512,-73.973595"
			}, {
				"id": 1113,
				"slug": "barneys",
				"title": "BARNEYS",
				"store": true,
				
				"street": "MADISON AVENUE",
				"streetnumber": "660 MADISON AVENUE",
				"postcode": "",
				"city": "NEW YORK",
				
				"phone": "+ 1 212 826 8900",
				"openingtimes": "MONDAY TO FRIDAY: 10:00AM – 08:00PM<br />SATURDAY: 10:00AM – 07:00PM<br />SUNDAY: 11:00AM – 06:00PM",
				
				"latlong": "40.764908,-73.97065"
			}
			]
			
			
		}, {
			"id": 1120,
			"slug": "beverly-hills",
			"title": "Beverly Hills",
			
			"items" : [{
				"id": 1121,
				"slug": "beverly-hills",
				"title": "C&eacute;line store",
				"store": true,
				
				"street": "NORTH RODEO DRIVE",
				"streetnumber": "319 NORTH RODEO DRIVE",
				"postcode": "CA 90210",
				"city": "BEVERLY HILLS",
				
				"phone": "+1 310 888 0120",
				"openingtimes": "Monday to Saturday 10AM - 6PM<br />CLOSED ON SUNDAY",
				
				"image": ".\/uploads\/store_beverlyhills.jpg",
				
				"latlong": "34.068478,-118.40113"
			}
			]
			
			
		}, {
			"id": 1130,
			"slug": "miami",
			"title": "Miami",
			
			"items" : [{
				"id": 1131,
				"slug": "design-district",
				"title": "C&eacute;line store",
				"store": true,
				
				"street": "Design district",
				"streetnumber": "Design district<br />Moore Building<br />191 NE 40TH Street Space 101",
				"postcode": "",
				"city": "Miami",
				
				"phone": "+ 1 305 866 1888",
				"openingtimes": "Monday to Saturday: 10:00AM – 06:00PM",
				
				"latlong": "25.812531,-80.191002"
			}
			]
			
			
		}
		]
		
		
	}]

	
	
	
	
},





{

	"id": 2000,
	"slug": "asia",
	"title": "Asia",
	"length": 4,
	
	
	"items" : [{
		"id": 2100,
		"slug": "hk",
		"title": "Hong Kong",
			
		"items" : [{
			"id": 2110,
			"slug": "hong-kong",
			"title": "HONG KONG",
			
			"items" : [{
				"id": 2111,
				"slug": "landmark",
				"title": "C&eacute;line store",
				"store": true,
				
				"street": "THE LANDMARK",
				"streetnumber": "G3-5, THE LANDMARK, 15 QUEEN'S ROAD",
				"postcode": "",
				"city": "CENTRAL HONG KONG",
				
				"phone": "+ 852 2525 1281",
				"openingtimes": "MONDAY TO SATUDAY: 10:00AM – 07:30PM<br />SUNDAY: 11:00AM – 07:00PM",
				
				"image": ".\/uploads\/store_hk.jpg",
				
				"latlong": "22.280838,114.15737"
			}, {
				"id": 2112,
				"slug": "pacific-lace",
				"title": "C&eacute;line store",
				"store": true,
				
				"street": "PACIFIC PLACE",
				"streetnumber": "SHOP 341-3<br />THE MALL, PACIFIC PLACE",
				"postcode": "",
				"city": "ADMIRALTY HONG KONG",
				
				"phone": "+ 1 212 753 7300",
				"openingtimes": "SUNDAY - THURSDAY: 10:00AM – 07:30PM<br />FRIDAY & SATURDAY: 10:00AM – 08:00PM",
				
				"image": ".\/uploads\/store_paris.jpg",
				
				"latlong": "22.278049,114.16516"
			}, {
				"id": 2113,
				"slug": "sogo",
				"title": "SOGO",
				"store": true,
				
				"street": "HENNESSY ROAD",
				"streetnumber": "555 HENNESSY ROAD",
				"postcode": "",
				"city": "CAUSEWAY BAY HONG KONG",
				
				"phone": "+ 1 212 826 8900",
				"openingtimes": "MONDAY TO SUNDAY: 10:00AM – 10:30PM",
				
				"image": ".\/uploads\/store_hk2.jpg",
				
				"latlong": "22.280661,114.18096"
			}
			
			
			, {
				"id": 2114,
				"slug": "ocean-center",
				"title": "C&eacute;line store",
				"store": true,
				
				"street": "OCEAN CENTER",
				"streetnumber": "SHOP 233A, OCEAN CENTER<br />5 CANTON ROAD",
				"postcode": "",
				"city": "KOWLOON HONG KONG",
				
				"phone": "+ 852 3417 3038",
				"openingtimes": "MONDAY TO SUNDAY: 10:00AM – 09:00PM",
				
				"latlong": "22.295753,114.16911"
			}, {
				"id": 2115,
				"slug": "harbour-city",
				"title": "C&eacute;line store",
				"store": true,
				
				"street": "HARBOUR CITY",
				"streetnumber": "SHOP G216 – 7, GATEWAY ARCADE, HARBOUR CITY<br />3 – 27 CANTON ROAD",
				"postcode": "",
				"city": "KOWLOON HONG KONG",
				
				"phone": "+ 852 2175 5988",
				"openingtimes": "MONDAY TO SUNDAY: 10:00AM – 09:00PM",
				
				"latlong": "22.295353,114.16902"
			}, {
				"id": 2116,
				"slug": "elements",
				"title": "ELEMENTS",
				"store": true,
				
				"street": "AUSTIN ROAD WEST",
				"streetnumber": "SHOP 2013-2013A, ELEMENTS<br />1 AUSTIN ROAD WEST",
				"postcode": "TSIM SHA TSUI,",
				"city": "KOWLOON HONG KONG",
				
				"phone": "+852 2501-4668",
				"openingtimes": "SUNDAY TO THURSDAY: 11AM TO 8.30PM<br />FRIDAY TO SATURDAY: 11AM TO 9PM",
				
				"latlong": "22.280661,114.18096"
			}, {
				"id": 2117,
				"slug": "joyce",
				"title": "JOYCE",
				"store": true,
				
				"street": "NEW WORLD TOWER",
				"streetnumber": "G/F, SHOP NO. 18, NEW WORLD TOWER",
				"postcode": "",
				"city": "CENTRAL HONG KONG",
				
				"phone": "+ 852 2810 1120",
				"openingtimes": "MONDAY TO SUNDAY: 10:00AM – 10:30PM",
				
				"latlong": "22.281944,114.15806"
			}, {
				"id": 2118,
				"slug": "lane-crawford",
				"title": "LANE CRAWFORD",
				"store": true,
				
				"street": "8 FINANCE STREET",
				"streetnumber": "PODIUM 3, IFC MALL, 8 FINANCE STREET",
				"postcode": "",
				"city": "CENTRAL HONG KONG",
				
				"phone": "+ 1 852 2118 3388",
				"openingtimes": "MONDAY TO SUNDAY: 10:00AM – 09:00PM",
				
				"latlong": "22.285295,114.15947"
			}]
		
			
			
		}
		]
		
		
	},{
		"id": 2200,
		"slug": "macao",
		"title": "MACAO",
			
		"items" : [{
			"id": 2210,
			"slug": "macao",
			"title": "MACAO",
			
			"items" : [{
				"id": 2211,
				"slug": "one-central",
				"title": "C&eacute;line store",
				"store": true,
				
				"street": "ONE CENTRAL",
				"streetnumber": "SHOP G35, ONE CENTRALM<br />AVENIDA DE SAGRES AND AVENIDA DO DR. SUN YAT SEN",
				"postcode": "",
				"city": "MACAO",
				
				"phone": "+ 852 2525 1281",
				"openingtimes": "MONDAY TO SUNDAY: 10:30AM – 10:30PM",
				
				"latlong": "22.192764,113.54006"
			}]
		
			
			
		}
		]
		
		
	},{
		"id": 2300,
		"slug": "taiwan",
		"title": "TAIWAN",
			
		"items" : [{
			"id": 2310,
			"slug": "taipei",
			"title": "TAIPEI",
			
			"items" : [{
				"id": 2311,
				"slug": "breeze-center",
				"title": "C&eacute;line store",
				"store": true,
				
				"street": "BREEZE CENTER",
				"streetnumber": "BREEZE CENTER<br />1/F N°39 SEC. 1, FUSING SOUTH ROAD",
				"postcode": "105",
				"city": "TAIPEI",
				
				"phone": "+ 886 2 8771 6818",
				"openingtimes": "MONDAY TO WEDNESDAY & SUNDAY: 11:00AM – 09:30PM<br />THURSDAY, SATURDAY: 11:00AM – 10:00PM",
				
				"latlong": "25.04567,121.54518"
			},{
				"id": 2312,
				"slug": "annex-sogo",
				"title": "C&eacute;line store",
				"store": true,
				
				"street": "ANNEX SOGO",
				"streetnumber": "ANNEX SOGO<br />1/F N°246 SEC. 1, DUNHUA SOUTH ROAD",
				"postcode": "106",
				"city": "TAIPEI",
				
				"phone": "+ 886 2 2711 1218",
				"openingtimes": "MONDAY TO WEDNESDAY & SUNDAY: 11:00AM – 09:30PM<br />THURSDAY, SATURDAY: 11:00AM – 10:00PM",
				
				"latlong": "25.040159,121.54838"
			}]
		
			
			
		},{
			"id": 2320,
			"slug": "tainan",
			"title": "TAINAN",
			
			"items" : [{
				"id": 2321,
				"slug": "mitsukoshi",
				"title": "C&eacute;line store",
				"store": true,
				
				"street": "MITSUKOSHI",
				"streetnumber": "MITSUKOSHI<br />G/F, N°658 SEC. 1, SHIMEN ROAD",
				"postcode": "700",
				"city": "TAINAN",
				
				"phone": "+ 886 6 303 1002",
				"openingtimes": "MONDAY TO SUNDAY: 11:00AM – 10:00PM",
				
				"latlong": "22.9881,120.1989"
			}]
		
			
			
		},{
			"id": 2330,
			"slug": "taichung",
			"title": "TAICHUNG",
			
			"items" : [{
				"id": 2331,
				"slug": "far-eastern",
				"title": "C&eacute;line store",
				"store": true,
				
				"street": "FAR EASTERN",
				"streetnumber": "FAR EASTERN<br />1/F 105 SEC. 2 TAICHUNG PORT ROAD",
				"postcode": "407",
				"city": "TAICHUNG CITY",
				
				"phone": "+ 886 4 2258 4618",
				"openingtimes": "MONDAY TO FRIDAY: 11:00AM – 10:00PM<br />SATURDAY, SUNDAY: 10:30AM – 10:00PM",
				
				"latlong": "24.16643,120.64349"
			}]
		
			
			
		},{
			"id": 2340,
			"slug": "kaohsiung",
			"title": "KAOHSIUNG",
			
			"items" : [{
				"id": 2341,
				"slug": "kaohsiung-hanshin",
				"title": "C&eacute;line store",
				"store": true,
				
				"street": "KAOHSIUNG HANSHIN",
				"streetnumber": "KAOHSIUNG HANSHIN<br />1/F NO 266-1 CHENGGONG 1ST ROAD",
				"postcode": "",
				"city": "KAOHSIUNG",
				
				"phone": "+ 886 7 215 3618",
				"openingtimes": "MONDAY TO THURSDAY: 11:00AM - 10:00PM<br />FRIDAY: 11:00AM - 10:30PM<br />SATURDAY: 10:30AM - 10:30PM<br />SUNDAY: 10:30AM - 10:00PM",
				
				"latlong": "25.04567,121.54518"
			}]
		
			
			
		}
		]
		
		
	},{
		"id": 2400,
		"slug": "china",
		"title": "CHINA",
			
		"items" : [{
			"id": 2410,
			"slug": "beijing",
			"title": "BEIJING",
			
			"items" : [{
				"id": 2411,
				"slug": "shin-kong-place",
				"title": "C&eacute;line store",
				"store": true,
				
				"street": "SHIN KONG PLACE",
				"streetnumber": "SHIN KONG PLACE<br />BEIJING SHIN KONG STORE SHOP M1021, L1 SHIN KONG PLACE<br />87 JIANGUO ROAD, CHAOYANG DISTRICT",
				"postcode": "100025",
				"city": "BEIJING",
				
				"phone": "+ 852 2525 1281",
				"openingtimes": "MONDAY TO SUNDAY: 10:00AM – 10:00PM",
				
				"latlong": "22.192764,113.54006"
			},{
				"id": 2412,
				"slug": "yintai-centre",
				"title": "YINTAI CENTRE PARK LIFE STORE",
				"store": true,
				
				"street": "CHAOYANG DISTRICT",
				"streetnumber": "SHOP 324-325 BEIJING YINTAI CENTRE PARK LIFE STORE<br />N°2 JIANGUOMEN WAI AVENUE, CHAOYANG DISTRICT",
				"postcode": "100025",
				"city": "BEIJING",
				
				"phone": "+ 86 10 8517 1585",
				"openingtimes": "MONDAY TO SUNDAY: 11:00AM - 09:30PM",
				
				"latlong": "39.945015,116.45473"
			},{
				"id": 2413,
				"slug": "china-world",
				"title": "CHINA WORLD",
				"store": true,
				
				"street": "CHAO YANG DISTRICT",
				"streetnumber": "SHOP L102 CHINA WORLD MALL<br />N°1 JIANGUOMEN WAI AVENUE, CHAO YANG DISTRICT",
				"postcode": "100025",
				"city": "BEIJING",
				
				"phone": "+ 86 10 6535 8018",
				"openingtimes": "MONDAY TO SUNDAY: 09:30AM – 09:30PM",
				
				"latlong": "39.904213,116.40741"
			},{
				"id": 2414,
				"slug": "lane-crawford",
				"title": "LANE CRAWFORD",
				"store": true,
				
				"street": "XICHENG DISTRICT",
				"streetnumber": "2 JINCHENGFANG STREET<br />XICHENG DISTRICT",
				"postcode": "100025",
				"city": "BEIJING",
				
				"phone": "+ 86 10 8517 1585",
				"openingtimes": "",
				
				"latlong": "39.91711,116.3607"
			}]
		
			
			
		},{
			"id": 2420,
			"slug": "shanghai",
			"title": "SHANGHAI",
			
			"items" : [{
				"id": 2421,
				"slug": "plaza-66",
				"title": "C&eacute;line store",
				"store": true,
				
				"street": "PLAZA 66",
				"streetnumber": "PLAZA 66<br />SHOP 316, 3RD FLOOR, PLAZA 66<br />1266 NAN JING XI LU",
				"postcode": "",
				"city": "SHANGHAI",
				
				"phone": "+ 86 21 6288 0216",
				"openingtimes": "MONDAY TO SUNDAY: 10:00AM – 10:00PM",
				
				"latlong": "31.227665,121.45377"
			},{
				"id": 2422,
				"slug": "shanghai-ifc",
				"title": "C&eacute;line store",
				"store": true,
				
				"street": "SHANGHAI IFC",
				"streetnumber": "SHANGHAI IFC<br />SHOP 19, SHANGHAI IFC, N° 8 CENTURY AVENUE, LUJIAZUI, PUDONG",
				"postcode": "",
				"city": "SHANGHAI",
				
				"phone": "+86 21 5012 0818",
				"openingtimes": "MONDAY TO SUNDAY: 10:00AM – 10:00PM",
				
				"latlong": "31.236383,121.50596"
			},{
				"id": 2423,
				"slug": "lavenue",
				"title": "L&rsquo;AVENUE",
				"store": true,
				
				"street": "XIANXIA ROAD",
				"streetnumber": "SHOP L110, LEVEL 1, SHANGHAI L'AVENUE<br />99 XIANXIA ROAD",
				"postcode": "200051",
				"city": "SHANGHAI",
				
				"phone": "+ 86 21 6070 9138",
				"openingtimes": "MONDAY TO SUNDAY 10AM - 10PM",
				
				"latlong": "31.2048,121.40549"
			}]
		
			
			
		},{
			"id": 2430,
			"slug": "guangzhou",
			"title": "GUANGZHOU",
			
			"items" : [{
				"id": 2431,
				"slug": "guangzhou",
				"title": "C&eacute;line store",
				"store": true,
				
				"street": "LA PERLE PLAZA",
				"streetnumber": "SHOP 107, LA PERLE PLAZA<br />367 HUAN SHI DONG LU",
				"postcode": "",
				"city": "GUANGZHOU",
				
				"phone": "+ 86 20 8331 0382",
				"openingtimes": "MONDAY TO SUNDAY: 10:00AM – 10:00PM",
				
				"latlong": "23.136473,113.28651"
			}]
		
			
			
		},{
			"id": 2440,
			"slug": "hangzhou",
			"title": "HANGZHOU",
			
			"items" : [{
				"id": 2441,
				"slug": "hangzhou",
				"title": "C&eacute;line store",
				"store": true,
				
				"street": "HANGZHOU TOWER",
				"streetnumber": "SHOP B106 L1 B BUILDING, HANGZHOU TOWER SHOPPING MALL<br />1 HANGZHOU WULIN SQUARE",
				"postcode": "",
				"city": "HANGZHOU",
				
				"phone": "+ 86 571 8506 5081",
				"openingtimes": "MONDAY TO THURSDAY: 9.45AM - 9PM<br />FRIDAY TO SUNDAY: 9.45AM - 10PM",
				
				"latlong": "30.27409,120.15507"
			}]
		
			
			
		},{
			"id": 2450,
			"slug": "shenzhen",
			"title": "SHENZHEN",
			
			"items" : [{
				"id": 2451,
				"slug": "shenzhen-mixc",
				"title": "C&eacute;line store",
				"store": true,
				
				"street": "SHENZHEN MIXC",
				"streetnumber": "SHOP 180 MIXC SHOPPING MALL<br />N°1881 BAO’AN SOUTH ROAD",
				"postcode": "",
				"city": "SHENZHEN",
				
				"phone": "+ 86 755 8266 2673",
				"openingtimes": "SUNDAY TO THURSDAY: 10:00AM - 10:00PM<br />FRIDAY, SATURDAY AND PUBLIC HOLIDAYS: 10:00AM - 10:30PM",
				
				"latlong": "30.27409,120.15507"
			}]
		
			
			
		},{
			"id": 2460,
			"slug": "shenyang",
			"title": "SHENYANG",
			
			"items" : [{
				"id": 2461,
				"slug": "charter-shopping-centre",
				"title": "C&eacute;line store",
				"store": true,
				
				"street": "SHENYANG CHARTER SHOPPING CENTRE",
				"streetnumber": "SHOP 1122, N°7 – 1 BEIJING STREET<br />SHENHE DISTRICT",
				"postcode": "",
				"city": "SHENYANG",
				
				"phone": "+ 86 24 2279 5195",
				"openingtimes": "MONDAY TO SUNDAY: 10:00AM – 09:30PM",
				
				"latlong": "38.910957,121.61236"
			},{
				"id": 2462,
				"slug": "f66-plaza",
				"title": "C&eacute;line store",
				"store": true,
				
				"street": "F66 PLAZA",
				"streetnumber": "SHOP 121-1 FORUM 66 PLAZA<br />1 QINGNIAN AVENUE",
				"postcode": "",
				"city": "SHENYANG",
				
				"phone": "+ 86 24 2296 2777",
				"openingtimes": "MONDAY TO SUNDAY: 10:00AM - 10:00PM",
				
				"latlong": "41.778397,123.43567"
			}]
			
		},{
			"id": 2470,
			"slug": "chengdu",
			"title": "CHENGDU",
			
			"items" : [{
				"id": 2471,
				"slug": "shenzhen-mixc",
				"title": "MAISON MODE",
				"store": true,
				
				"street": "RENMIN SOUTH ROAD",
				"streetnumber": "SHOP 104, LEVEL 1, MAISON MODE CHENGDU DEPT. STORE<br />N°56, SECTION 2 OF RENMIN SOUTH ROAD",
				"postcode": "",
				"city": "CHENGDU",
				
				"phone": "+ 86 28 8620 7002",
				"openingtimes": "MONDAY TO SUNDAY: 10:00AM – 10:00PM",
				
				"latlong": "30.649958,104.06592"
			}]
		
			
		},{
			"id": 2480,
			"slug": "qingdao",
			"title": "QINGDAO",
			
			"items" : [{
				"id": 2481,
				"slug": "hisense-plaza",
				"title": "C&eacute;line store",
				"store": true,
				
				"street": "HISENSE PLAZA",
				"streetnumber": "HISENSE PLAZA, SHOP 107-1<br />N°50 DONGHAIXI ROAD WEST ROAD",
				"postcode": "",
				"city": "QINGDAO",
				
				"phone": "+ 86 532 6678 8123",
				"openingtimes": "MONDAY TO SUNDAY: 10:00AM – 10:00PM",
				
				"latlong": "30.649958,104.06592"
			}]
		
			
		},{
			"id": 2490,
			"slug": "tianjin",
			"title": "TIANJIN",
			
			"items" : [{
				"id": 2491,
				"slug": "tianjin-galaxy",
				"title": "C&eacute;line store",
				"store": true,
				
				"street": "GALAXY MALL",
				"streetnumber": "SHOP L1-015-2 LEVEL 1 GALAXY MALL<br />9 LEYUAN ROAD HEXI DISTRICT",
				"postcode": "300201",
				"city": "TIANJIN",
				
				"phone": "+ 86 22 8837 8730",
				"openingtimes": "SUNDAY TO SATURDAY: 10 AM - 10 PM",
				
				"latlong": "39.09074,117.21609"
			}]
		
			
		},{
			"id": 24100,
			"slug": "nanjing",
			"title": "NANJING",
			
			"items" : [{
				"id": 24101,
				"slug": "deji-plaza",
				"title": "C&eacute;line store",
				"store": true,
				
				"street": "DEJI PLAZA",
				"streetnumber": "SHOP F110 LEVEL 1 DEJI PLAZA<br />18 ZHONGSHAN ROAD",
				"postcode": "210005",
				"city": "NANJING",
				
				"phone": "+ 86 25 8677 7696",
				"openingtimes": "SUNDAY TO THURSDAY 10AM - 10 PM<br />FRIDAY AND SATURDAY 10 AM TO 10.30 PM",
				
				"latlong": "32.043804,118.78418"
			}]
		
			
		},{
			"id": 24110,
			"slug": "suzhou",
			"title": "SUZHOU",
			
			"items" : [{
				"id": 24111,
				"slug": "suzhou-tower",
				"title": "C&eacute;line store",
				"store": true,
				
				"street": "SUZHOU TOWER",
				"streetnumber": "SHOP 121, SUZHOU TOWER<br />N°383 RENMIN ROAD",
				"postcode": "210005",
				"city": "SUZHOU",
				
				"phone": "+ 86 512 6572 1101",
				"openingtimes": "MONDAY TO SUNDAY: 10:00AM – 10:00PM",
				
				"latlong": "31.324358,120.61768"
			}]
		
			
		},{
			"id": 24120,
			"slug": "changsha",
			"title": "CHANGSHA",
			
			"items" : [{
				"id": 24121,
				"slug": "maison-mode",
				"title": "MAISON MODE",
				"store": true,
				
				"street": "YUNDA INTERNATIONAL PLAZA",
				"streetnumber": "SHOP 107, MAISON MODE, YUNDA INTERNATIONAL PLAZA<br />478 FURONG MIDDLE ROAD",
				"postcode": "210005",
				"city": "CHANSHA",
				
				"phone": "+ 86 731 8477 9256",
				"openingtimes": "MONDAY TO SUNDAY: 10:00AM – 10:00PM",
				
				"latlong": "28.228209,112.93881"
			}]
		
			
		},{
			"id": 24130,
			"slug": "harbin",
			"title": "HARBIN",
			
			"items" : [{
				"id": 24131,
				"slug": "mykal-harbin",
				"title": "MYKAL HARBIN PREMIER DEPT. STORE",
				"store": true,
				
				"street": "DAOLI DISTRICT",
				"streetnumber": "SHOP 107, MYKAL HARBIN PREMIER DEPT. STORE<br />N°73 SHANGZHI STREET, DAOLI DISTRICT",
				"postcode": "",
				"city": "HARBIN",
				
				"phone": "+ 86 451 5898 9704",
				"openingtimes": "MONDAY TO SUNDAY: 09:30AM – 09:00PM",
				
				"latlong": "45.771488,126.62307"
			}]
		
			
		},{
			"id": 24140,
			"slug": "dalian",
			"title": "DALIAN",
			
			"items" : [{
				"id": 24141,
				"slug": "dalian-times-square",
				"title": "C&eacute;line store",
				"store": true,
				
				"street": "DALIAN TIMES SQUARE",
				"streetnumber": "DALIAN TIMES SQUARE<br />SHOP L144 LEVEL 1 DALIAN TIMES SQUARE<br />50 RENMIN ROAD ZHONGSHAN DISTRICT",
				"postcode": "116001",
				"city": "DALIAN",
				
				"phone": "+86 411 8807 9746",
				"openingtimes": "MONDAY TO SUNDAY: 10AM - 9PM",
				
				"latlong": "38.924255,121.65015"
			}]
		
			
		}
		]
		
		
	},{
		"id": 2500,
		"slug": "korea",
		"title": "KOREA",
			
		"items" : [{
			"id": 2510,
			"slug": "seoul",
			"title": "SEOUL",
			
			"items" : [{
				"id": 2511,
				"slug": "galleria",
				"title": "GALLERIA",
				"store": true,
				
				"street": "GANGNAM",
				"streetnumber": "GALLERIA EAST DEPT. STORE, 2F, 515 APGUJUNG – DONG<br />GANGNAM – GU",
				"postcode": "",
				"city": "SEOUL",
				
				"phone": "+ 82 2 540 0486",
				"openingtimes": "MONDAY TO SUNDAY: 10:30AM – 08:00PM",
				
				"latlong": "37.531239,127.02772"
			},{
				"id": 2512,
				"slug": "shinsegae-main",
				"title": "SHINSEGAE MAIN",
				"store": true,
				
				"street": "JOONG",
				"streetnumber": "SHINSEGAE MAIN DEPT. STORE, 4F CHOONGMOO – RO 1 GA, 52 – 5<br />JOONG – GU",
				"postcode": "",
				"city": "SEOUL",
				
				"phone": "+ 82 2 310 1877",
				"openingtimes": "MONDAY TO SUNDAY: 10:30AM – 08:00PM",
				
				"latlong": "37.566536,126.97797"
			},{
				"id": 2513,
				"slug": "hyundai-main",
				"title": "HYUNDAI MAIN",
				"store": true,
				
				"street": "GANGNAM",
				"streetnumber": "HYUNDAI DEPT. STORE, 2F, 429 APGUJUNG-DONG<br />GANGNAM-GU",
				"postcode": "",
				"city": "SEOUL",
				
				"phone": "+ 82 2 540 0486",
				"openingtimes": "MONDAY TO SUNDAY: 10:30AM – 08:00PM",
				
				"latlong": "37.566536,126.97797"
			},{
				"id": 2514,
				"slug": "shinsegae-gangnam",
				"title": "SHINSEGAE GANGNAM",
				"store": true,
				
				"street": "SEOCHO",
				"streetnumber": "SHINSEGAE GANGNAM DEPT. STORE, 2F, BANPO – DONG 19 – 3<br />SEOCHO – GU",
				"postcode": "",
				"city": "SEOUL",
				
				"phone": "+ 82 2 3479 1988",
				"openingtimes": "MONDAY TO SUNDAY: 10:30AM – 08:00PM",
				
				"latlong": "37.506042,127.01266"
			}]
		
			
			
		},{
			"id": 2520,
			"slug": "busan",
			"title": "BUSAN",
			
			"items" : [{
				"id": 2521,
				"slug": "shinsegae",
				"title": "SHINSEGAE",
				"store": true,
				
				"street": "CENTRUM CITY",
				"streetnumber": "SHINSEGAE CENTUM CITY 2F<br />WOO-DONG, HAEUNDAE-GU",
				"postcode": "1495",
				"city": "BUSAN",
				
				"phone": "+82 51 745 1340",
				"openingtimes": "MONDAY TO SUNDAY: 10:30AM - 8:00PM",
				
				"latlong": "35.168827,129.12912"
			}]
		
			
			
		}
		]
		
		
	},{
		"id": 2600,
		"slug": "singapore",
		"title": "SINGAPORE",
			
		"items" : [{
			"id": 2610,
			"slug": "singapore",
			"title": "SINGAPORE",
			
			"items" : [{
				"id": 2611,
				"slug": "ngee-ann-city",
				"title": "NGEE ANN CITY",
				"store": true,
				
				"street": "ORCHARD ROAD",
				"streetnumber": "NGEE ANN CITY, #01-28/29 391 ORCHARD ROAD",
				"postcode": "238883",
				"city": "SINGAPORE",
				
				"phone": "+ 65 6736 0511",
				"openingtimes": "MONDAY TO SUNDAY: 10:30AM – 10:30PM",
				
				"latlong": "1.30259,103.83452"
			}]
		
			
			
		}
		]
		
		
	},{
		"id": 2700,
		"slug": "malaysia",
		"title": "MALAYSIA",
			
		"items" : [{
			"id": 2710,
			"slug": "kuala-lumpur",
			"title": "KUALA LUMPUR",
			
			"items" : [{
				"id": 2711,
				"slug": "pavilion",
				"title": "PAVILION",
				"store": true,
				
				"street": "JALAN BUKIT BINTANG",
				"streetnumber": "PAVILION SHOPPING CENTER, LOT 2.35<br />2ND FLOOR, 168 JALAN BUKIT BINTANG",
				"postcode": "55100",
				"city": "KUALA LUMPUR",
				
				"phone": "+ 60 3 2142 1086",
				"openingtimes": "MONDAY TO SUNDAY: 10:30AM – 10:30PM",
				
				"latlong": "3.1438718,101.70753"
			}]
		
			
			
		}
		]
		
		
	},{
		"id": 2800,
		"slug": "indonesia",
		"title": "INDONESIA",
			
		"items" : [{
			"id": 2810,
			"slug": "jakarta",
			"title": "JAKARTA",
			
			"items" : [{
				"id": 2811,
				"slug": "plaza-senayan",
				"title": "PLAZA SENAYAN",
				"store": true,
				
				"street": "JL. ASIA AFRIKA",
				"streetnumber": "G/F 130B – 132B PLAZA SENAYAN<br />JL. ASIA AFRIKA 8",
				"postcode": "10270",
				"city": "JAKARTA",
				
				"phone": "+ 62 21 572 5247",
				"openingtimes": "MONDAY TO SUNDAY: 10:30AM – 10:30PM",
				
				"latlong": "-6.2216148,106.79808"
			}]
		
			
			
		}
		]
		
		
	},{
		"id": 2900,
		"slug": "thailand",
		"title": "THAILAND",
			
		"items" : [{
			"id": 2910,
			"slug": "bangkok",
			"title": "BANGKOK",
			
			"items" : [{
				"id": 2911,
				"slug": "the-emporium",
				"title": "THE EMPORIUM",
				"store": true,
				
				"street": "SUKHUMVIT ROAD",
				"streetnumber": "UNIT 1P16 THE EMPORIUM<br />SUKHUMVIT ROAD",
				"postcode": "10110",
				"city": "BANGKOK",
				
				"phone": "+66 2 664 9909",
				"openingtimes": "MONDAY TO SUNDAY: 10:00AM – 08:00PM",
				
				"latlong": "13.732652,100.57011"
			}]
		
			
			
		}
		]
		
		
	}
	]
	
	
	
},



{

	"id": 3000,
	"slug": "europe",
	"title": "Europe",
	"length": 4,
	
	
	"items" : [{
		"id": 3100,
		"slug": "france",
		"title": "France",
			
		"items" : [{
			"id": 3110,
			"slug": "paris",
			"title": "PARIS",
			
			"items" : [{
				"id": 3111,
				"slug": "francois-1er",
				"title": "C&eacute;line store",
				"store": true,
				
				"street": "Francois 1er",
				"streetnumber": "24 RUE Francois 1er",
				"postcode": "75008",
				"city": "PARIS",
				
				"phone": "+ 33 1 40 70 07 03<br />+ 33 1 40 70 05 80",
				"openingtimes": "Monday to Saturday: 10:00AM – 07:00PM",
				
				"image": ".\/uploads\/store_francois.jpg",
				
				"latlong": "48.867676,2.305202"
			}, {
				"id": 3112,
				"slug": "grenelle",
				"title": "C&eacute;line store",
				"store": true,
				
				"street": "GRENELLE",
				"streetnumber": "16 rue de Grenelle",
				"postcode": "75007",
				"city": "PARIS",
				
				"phone": "+ 33 1 55 80 14 99",
				"openingtimes": "Monday to Saturday: 10:30AM – 07:00PM",
				
				"image": ".\/uploads\/store_paris.jpg",
				
				"latlong": "48.852989,2.3290153"
			}, {
				"id": 3113,
				"slug": "victor-hugo",
				"title": "C&eacute;line store",
				"store": true,
				
				"street": "VICTOR HUGO",
				"streetnumber": "3 AVENUE VICTOR HUGO",
				"postcode": "75016",
				"city": "PARIS",
				
				"phone": "+ 33 1 45 01 80 01",
				"openingtimes": "Monday to Saturday: 10:30AM – 07:00PM",
				
				"latlong": "48.872787,2.2929971"
			}, {
				"id": 3114,
				"slug": "printemps",
				"title": "PRINTEMPS",
				"store": true,
				
				"street": "BOULEVARD HAUSSMANN",
				"streetnumber": "64 BOULEVARD HAUSSMANN",
				"postcode": "75009",
				"city": "PARIS",
				
				"phone": "+ 33 1 42 82 43 85 (RTW)<br />+ 33 1 42 82 46 03 / + 3 31 42 82 69 18 (ACC)",
				"openingtimes": "Monday to Saturday: 9.30AM – 8PM<br />THURSDAY: 9.30AM – 10PM",
				
				"latlong": "48.872787,2.2929971"
			}, {
				"id": 3115,
				"slug": "galeries-lafayette",
				"title": "GALERIES LAFAYETTE",
				"store": true,
				
				"street": "BOULEVARD HAUSSMANN",
				"streetnumber": "40 BOULEVARD HAUSMANN",
				"postcode": "75009",
				"city": "PARIS",
				
				"phone": "+ 33 1 40 07 50 96",
				"openingtimes": "MONDAY, TUESDAY, WEDNESDAY, FRIDAY, SATURDAY: 09:30AM – 08:00PM<br />THURSDAY: 09:30AM – 09:00PM",
				
				"latlong": "48.87344,2.3321321"
			}, {
				"id": 3116,
				"slug": "le-bon-marche",
				"title": "LE BON MARCH&Eacute;",
				"store": true,
				
				"street": "RUE DE S&Egrave;VRES",
				"streetnumber": "24 RUE DE S&Egrave;VRES",
				"postcode": "75007",
				"city": "PARIS",
				
				"phone": "+ 33 1 45 49 19 58 (READY TO WEAR)<br />+ 33 1 42 84 35 83 (LEATHER GOODS)",
				"openingtimes": "MONDAY, TUESDAY, WEDNESDAY, SATURDAY: 10:00AM – 08:00PM<br />THURSDAY – FRIDAY: 10:00AM – 09:00PM",
				
				"latlong": "48.84985,2.323323"
			}
			]
			
			
		}, {
			"id": 3120,
			"slug": "cannes",
			"title": "CANNES",
			
			"items" : [{
				"id": 3121,
				"slug": "croisette",
				"title": "C&eacute;line store",
				"store": true,
				
				"street": "LA CROISETTE",
				"streetnumber": "43 BOULEVARD DE LA CROISETTE",
				"postcode": "06400",
				"city": "CANNES",
				
				"phone": "+ 33 4 93 38 04 95",
				"openingtimes": "Monday to Saturday: 10:00AM – 01:00PM & 02:30PM – 07:00PM",
				
				"latlong": "43.549728,7.0256281"
			}
			]
			
			
		}
		]
		
		
	},{
		"id": 3200,
		"slug": "uk",
		"title": "United Kingdom",
			
		"items" : [{
			"id": 3210,
			"slug": "london",
			"title": "London",
			
			"items" : [{
				"id": 3211,
				"slug": "mount-street",
				"title": "C&eacute;line store",
				"store": true,
				
				"street": "MOUNT STREET",
				"streetnumber": "103 MOUNT STREET",
				"postcode": "W1K 2AP",
				"city": "LONDON",
				
				"phone": "+44 20 7491 8200",
				"openingtimes": "Monday to Saturday: 10:00AM - 06:30PM",
				
				"image": ".\/uploads\/store_mount.jpg",
				
				"latlong": "51.509853,-0.1499429"
			}, {
				"id": 3212,
				"slug": "selfridges",
				"title": "SELFRIDGES",
				"store": true,
				
				"street": "OXFORD STREET",
				"streetnumber": "400 OXFORD STREET",
				"postcode": "W1A 1AB",
				"city": "LONDON",
				
				"phone": "+ 44 20 7318 3144<br />+ 44 20 7318 7675",
				"openingtimes": "",
				
				"latlong": "51.514957,-0.1444629"
			}, {
				"id": 3213,
				"slug": "harrods",
				"title": "HARRODS",
				"store": true,
				
				"street": "KNIGHTSBRIDGE",
				"streetnumber": "87 – 135 BROMPTON ROAD, KNIGHTSBRIDGE",
				"postcode": "SW1X 7XL",
				"city": "LONDON",
				
				"phone": "+44 207 730 1234",
				"openingtimes": "Monday to Saturday: 10:00AM – 08:00PM<br />SUNDAY: 11.30AM – 06:00PM",
				
				"latlong": "51.499172,-0.1644209"
			}, {
				"id": 3214,
				"slug": "dsm",
				"title": "DOVER STREET MARKET",
				"store": true,
				
				"street": "DOVER STREET",
				"streetnumber": "17 - 18 DOVER STREET",
				"postcode": "W1S 4LT",
				"city": "LONDON",
				
				"phone": "+ 44 20 7518 0680",
				"openingtimes": "MONDAY TO WEDNESDAY: 11:00AM – 06:30PM<br />THURSDAY TO SATURDAY: 11:00AM – 07:00PM<br />SUNDAY: 12:00PM – 05:00PM",
				
				"latlong": "51.50869,-0.14201801"
			}, {
				"id": 3215,
				"slug": "harvey-nichols",
				"title": "HARVEY NICHOLS",
				"store": true,
				
				"street": "KNIGHTSBRIDGE",
				"streetnumber": "109 – 125 KNIGHTSBRIDGE",
				"postcode": "SW1X 7RJ",
				"city": "LONDON",
				
				"phone": "+ 44 20 7235 5000",
				"openingtimes": "Monday to Saturday: 10:00AM – 08:00PM<br />SUNDAY: 11:30AM – 06:00PM",
				
				"latlong": "51.501884,-0.1598977"
			}
			]
			
			
		}
		]
		
		
	},{
		"id": 3300,
		"slug": "italy",
		"title": "Italy",
			
		"items" : [{
			"id": 3310,
			"slug": "milano",
			"title": "MILANO",
			
			"items" : [{
				"id": 3311,
				"slug": "monte-napoleone",
				"title": "C&eacute;line store",
				"store": true,
				
				"street": "MONTE NAPOLEONE",
				"streetnumber": "VIA MONTE NAPOLEONE 25",
				"postcode": "20121",
				"city": "MILANO",
				
				"phone": "+ 39 02 76 015 579",
				"openingtimes": "Monday to Saturday: 10:00AM – 07:00PM",
								
				"latlong": "45.469326,9.1938162"
			}, {
				"id": 3312,
				"slug": "la-rinascente",
				"title": "LA RINASCENTE",
				"store": true,
				
				"street": "PIAZZA DUOMO",
				"streetnumber": "PIAZZA DUOMO",
				"postcode": "20121",
				"city": "MILANO",
				
				"phone": "+ 39 02 89 092 521",
				"openingtimes": "MONDAY TO SUNDAY: 09:30AM – 09:00PM",
				
				"latlong": "45.464161,9.1903353"
			}
			]
			
			
		}, {
			"id": 3320,
			"slug": "roma",
			"title": "ROMA",
			
			"items" : [{
				"id": 3321,
				"slug": "condotti",
				"title": "C&eacute;line store",
				"store": true,
				
				"street": "CONDOTTI",
				"streetnumber": "VIA DEI CONDOTTI 20/A",
				"postcode": "00187",
				"city": "ROMA",
				
				"phone": "+ 39 06 67 87 594",
				"openingtimes": "Monday to Saturday: 10:00AM – 07:00PM",
				
				"latlong": "41.905167,12.480551"
			}
			]
			
			
		}, {
			"id": 3330,
			"slug": "florence",
			"title": "FLORENCE",
			
			"items" : [{
				"id": 3331,
				"slug": "tornabuoni",
				"title": "C&eacute;line store",
				"store": true,
				
				"street": "TORNABUONI",
				"streetnumber": "VIA DE' TORNABUONI 24/26/28R",
				"postcode": "50123",
				"city": "FLORENCE",
				
				"phone": "+ 39 055 26 45 521",
				"openingtimes": "Monday to Saturday: 10:00AM – 07:00PM",
				
				"latlong": "43.77121,11.25125"
			}
			]
			
			
		}
		]
		
		
	},{
		"id": 3400,
		"slug": "switzerland",
		"title": "Switzerland",
			
		"items" : [{
			"id": 3410,
			"slug": "geneva",
			"title": "GENEVA",
			
			"items" : [{
				"id": 3411,
				"slug": "rhone",
				"title": "C&eacute;line store",
				"store": true,
				
				"street": "RUE DU RH&Ocirc;NE",
				"streetnumber": "RUE DU RH&Ocirc;NE 47",
				"postcode": "1204",
				"city": "GENEVA",
				
				"phone": "+ 41 22 312 14 60",
				"openingtimes": "MONDAY TO FRIDAY: 10:00AM – 06:30PM<br />SATURDAY: 10:00AM – 06:00PM",
								
				"latlong": "46.203629,6.15063"
			}
			]
			
			
		}
		]
		
		
	},{
		"id": 3500,
		"slug": "monaco",
		"title": "Principalty of Monaco",
			
		"items" : [{
			"id": 3510,
			"slug": "monte-carlo",
			"title": "MONTE CARLO",
			
			"items" : [{
				"id": 3511,
				"slug": "casino",
				"title": "C&eacute;line store",
				"store": true,
				
				"street": "PLACE DU CASINO",
				"streetnumber": "PLACE DU CASINO",
				"postcode": "98000",
				"city": "MONTE CARLO",
				
				"phone": "+ 377 93 30 92 78",
				"openingtimes": "Monday to Saturday: 10:15AM – 07:15PM",
								
				"latlong": "43.739311,7.4273281"
			}
			]
			
			
		}
		]
		
		
	},{
		"id": 3600,
		"slug": "netherlands",
		"title": "Netherlands",
			
		"items" : [{
			"id": 3610,
			"slug": "amsterdam",
			"title": "AMSTERDAM",
			
			"items" : [{
				"id": 3611,
				"slug": "bijenkorf",
				"title": "DE BIJENKORF",
				"store": true,
				
				"street": "DAM",
				"streetnumber": "DAM 1",
				"postcode": "1210 JS",
				"city": "AMSTERDAM",
				
				"phone": "+ 31 88 24 54 000",
				"openingtimes": "MONDAY: 11:00AM – 07:00PM<br />TUESDAY, WEDNESDAY: 10:00AM – 07:00PM<br />THURSDAY, FRIDAY: 10:00AM – 09:00PM<br />SATURDAY: 09:30AM – 07:00PM<br />SUNDAY: 11.00AM – 07:00PM",
								
				"latlong": "52.309593,4.9452047"
			}
			]
			
			
		}
		]
		
		
	},{
		"id": 3700,
		"slug": "germany",
		"title": "Germany",
			
		"items" : [{
			"id": 3710,
			"slug": "berlin",
			"title": "BERLIN",
			
			"items" : [{
				"id": 3711,
				"slug": "kadewe",
				"title": "KADEWE",
				"store": true,
				
				"street": "TAUENTZIENSTRASSE",
				"streetnumber": "TAUENTZIENSTRASSE 21-24",
				"postcode": "10789",
				"city": "BERLIN",
				
				"phone": "+ 49 30 20076557",
				"openingtimes": "MONDAY TO THURSDAY: 10:00AM – 09:00PM<br />FRIDAY: 10:00AM – 08:00PM<br />SATURDAY: 09:30AM – 08:00PM",
								
				"latlong": "52.309593,4.9452047"
			}
			]
			
			
		},{
			"id": 3720,
			"slug": "munich",
			"title": "MUNICH",
			
			"items" : [{
				"id": 3721,
				"slug": "marion-heinrich",
				"title": "MARION HEINRICH",
				"store": true,
				
				"street": "RESIDENZSTRAASSE",
				"streetnumber": "RESIDENZSTRAASSE 18",
				"postcode": "80333",
				"city": "MUNICH",
				
				"phone": "+ 49 89 29252 6",
				"openingtimes": "Monday to Saturday: 10:00AM – 08:00PM",
								
				"latlong": "48.138351,11.58152"
			}
			]
			
			
		}
		]
		
		
	},{
		"id": 3800,
		"slug": "russia",
		"title": "Russia",
			
		"items" : [{
			"id": 3810,
			"slug": "moscow",
			"title": "MOSCOW",
			
			"items" : [{
				"id": 3811,
				"slug": "crocus-city-mall",
				"title": "CROCUS CITY MALL",
				"store": true,
				
				"street": "KRASNOGORSK",
				"streetnumber": "KRASNOGORSK 4",
				"postcode": "",
				"city": "MOSCOW",
				
				"phone": "+ 7 495 933 41 46",
				"openingtimes": "MONDAY TO SUNDAY: 10:00AM – 10:00PM",
								
				"latlong": "55.818325,37.337532"
			},{
				"id": 3812,
				"slug": "tsum",
				"title": "TSUM",
				"store": true,
				
				"street": "PETROVA STREET",
				"streetnumber": "PETROVA STREET 2",
				"postcode": "125009",
				"city": "MOSCOW",
				
				"phone": "+ 7 495 933 73 00",
				"openingtimes": "Monday to Saturday: 10:00AM – 10:00PM<br />SUNDAY: 11:00AM – 10.00PM",
								
				"latlong": "55.760532,37.61977"
			}
			]
			
			
		}
		]
		
		
	},{
		"id": 3900,
		"slug": "ukraine",
		"title": "Ukraine",
			
		"items" : [{
			"id": 3910,
			"slug": "kiev",
			"title": "KIEV",
			
			"items" : [{
				"id": 3911,
				"slug": "sanahunt",
				"title": "SANAHUNT",
				"store": true,
				
				"street": "GRUSHEVSKOGO STREET",
				"streetnumber": "GRUSHEVSKOGO STREET 8/16",
				"postcode": "01001",
				"city": "KIEV",
				
				"phone": "+ 38 044 270 71 27",
				"openingtimes": "Monday to Saturday: 11:00AM – 09:00PM<br />SUNDAY: 12:00PM – 08:00PM",
								
				"latlong": "56.834877,60.602108"
			}
			]
			
			
		}
		]
		
		
	},{
		"id": 31000,
		"slug": "azerbaidjan",
		"title": "Azerbaidjan",
			
		"items" : [{
			"id": 31010,
			"slug": "baku",
			"title": "BAKU",
			
			"items" : [{
				"id": 31011,
				"slug": "nobel-crocus-baku",
				"title": "NOBEL CROCUS BAKU",
				"store": true,
				
				"street": "NEFTCHILYAR AVENUE",
				"streetnumber": "105 NEFTCHILYAR AVENUE",
				"postcode": "1015",
				"city": "BAKU",
				
				"phone": "+ 994 12 437 3935",
				"openingtimes": "MONDAY TO SUNDAY: 10:00AM – 08:00PM",
								
				"latlong": "40.395279,49.882221"
			}
			]
			
			
		}
		]
		
		
	}
	]

	
	
	
	
},





{

	"id": 4000,
	"slug": "japan",
	"title": "Japan",
	"length": 3,
	
	
	"items" : [{
		"id": 4100,
		"slug": "tokyo",
		"title": "TOKYO",
		
		"items" : [{
			"id": 4110,
			"slug": "omotesando",
			"title": "OMOTESANDO",
			"store": true,
			
			"street": "MINATO",
			"streetnumber": "3 – 5 – 29 KITA AOYAMA, MINATO – KU",
			"postcode": "107 – 006",
			"city": "TOKYO",
			
			"phone": "+ 81 3 5771 4801",
			"openingtimes": "MONDAY TO SUNDAY: 11:00AM – 08:00PM",
						
			"latlong": "35.66589,139.71175"
		}, {
			"id": 4120,
			"slug": "omotesando-temp",
			"title": "OMOTESANDO TEMPORARY STORE",
			"store": true,
			
			"street": "SHIBUYA",
			"streetnumber": "4-25-13 JINGUMAE SHIBUYA-KU",
			"postcode": "151-0001",
			"city": "TOKYO",
			
			"phone": "+81 3 5771 4801",
			"openingtimes": "MONDAY TO SUNDAY: 11AM - 8PM",
			
			"latlong": "35.668892,139.70711"
		}, {
			"id": 4130,
			"slug": "isetan-shinjuku",
			"title": "ISETAN SHINJUKU",
			"store": true,
			
			"street": "SHINJUKU",
			"streetnumber": "3 – 14 – 1 SHINJUKU, SHINJUKU – KU",
			"postcode": "160 – 0022",
			"city": "TOKYO",
			
			"phone": "+ 81 3 3352 4210",
			"openingtimes": "MONDAY TO SUNDAY: 10:30AM – 8PM",
			
			"latlong": "35.691639,139.70462"
		}, {
			"id": 4140,
			"slug": "matsuya-ginza",
			"title": "MATSUYA GINZA",
			"store": true,
			
			"street": "GINZA",
			"streetnumber": "3 – 6 – 1 GINZA, CHUO – KU",
			"postcode": "104 – 8130",
			"city": "TOKYO",
			
			"phone": "+ 81 3 3538 3236<br />+ 81 3 3535 6470 (ACC)",
			"openingtimes": "MONDAY TO SUNDAY: 10:00AM – 08:00PM",
			
			"latlong": "35.672256,139.76669"
		}, {
			"id": 4150,
			"slug": "takashymaya-shinjuku",
			"title": "TAKASHIMAYA SHINJUKU",
			"store": true,
			
			"street": "SHINJUKU",
			"streetnumber": "5 – 24 – 2 SENDAGAYA, SIBUYA – KU",
			"postcode": "151 – 8580",
			"city": "TOKYO",
			
			"phone": "+ 81 3 5361 1494",
			"openingtimes": "MONDAY TO FRIDAY & SUNDAY: 10:00AM – 08:00PM<br />SATURDAY: 10:00AM – 08:30PM",
			
			"latlong": "35.687321,139.70209"
		}, {
			"id": 4160,
			"slug": "takashimaya-nihonbashi",
			"title": "TAKASHIMAYA NIHONBASHI",
			"store": true,
			
			"street": "CHUO",
			"streetnumber": "2 – 4 – 1 NIHONBASHI, CHUO – KU",
			"postcode": "103 – 8265",
			"city": "TOKYO",
			
			"phone": "+ 81 3 3281 7039",
			"openingtimes": "MONDAY TO SUNDAY: 10:00AM – 08:00PM",
			
			"latlong": "35.680668,139.7737"
		}, {
			"id": 4170,
			"slug": "mitsukoshi-nihonbashi",
			"title": "MITSUKOSHI NIHONBASHI",
			"store": true,
			
			"street": "CHUO",
			"streetnumber": "1 – 4 – 1 NIHONBASHI MUROMACHI, CHUO – KU",
			"postcode": "103 – 8001",
			"city": "TOKYO",
			
			"phone": "+ 81 3 3243 0127",
			"openingtimes": "MONDAY TO SUNDAY: 10:00AM – 08:00PM",
			
			"latlong": "35.685596,139.77338"
		}, {
			"id": 4180,
			"slug": "takashimaya-tamagawa",
			"title": "TAKASHIMAYA TAMAGAWA",
			"store": true,
			
			"street": "SETAGAYA",
			"streetnumber": "3 – 17 – 1 TAMAGAWA, SETAGAYA – KU",
			"postcode": "158 – 8701",
			"city": "TOKYO",
			
			"phone": "+ 81 3 3707 7682",
			"openingtimes": "MONDAY TO SUNDAY: 10:00AM – 08:00PM",
			
			"latlong": "35.614185,139.62674"
		}, {
			"id": 4190,
			"slug": "seibu-ikebukuro",
			"title": "SEIBU IKEBUKURO",
			"store": true,
			
			"street": "TOSHIMA",
			"streetnumber": "1 – 28 – 1 MINAMI – IKEBUKURO, TOSHIMA – KU",
			"postcode": " 171 – 8569",
			"city": "TOKYO",
			
			"phone": "+ 81 3 5949 2130",
			"openingtimes": "Monday to Saturday: 10:00AM – 09:00PM<br />SUNDAY: 10:00AM – 08:00PM",
			
			"latlong": "35.729481,139.71196"
		}, {
			"id": 41100,
			"slug": "mitsukoshi-ginza",
			"title": "MITSUKOSHI GINZA",
			"store": true,
			
			"street": "GINZA",
			"streetnumber": "4 – 6 – 16 GINZA, CHUO – KU",
			"postcode": "104 – 8212",
			"city": "TOKYO",
			
			"phone": "+ 81 3 3535 6510",
			"openingtimes": "MONDAY TO SUNDAY: 10:00AM – 08:00PM",
			
			"latlong": "35.671352,139.76584"
		}
		]

		
		
	},{
		"id": 4200,
		"slug": "chiba",
		"title": "CHIBA",
		
		"items" : [{
			"id": 4210,
			"slug": "sogo-chiba",
			"title": "SOGO CHIBA",
			"store": true,
			
			"street": "CHUO",
			"streetnumber": "1000 BANCHI SHINMACHI, CHUO – KU CHIBA CITY",
			"postcode": "260 – 8557",
			"city": "CHIBA",
			
			"phone": "+ 81 4 3245 3154",
			"openingtimes": "MONDAY TO SUNDAY: 10:00AM – 08:00PM",
						
			"latlong": "35.611469,140.11331"
		}
		]

		
		
	},{
		"id": 4300,
		"slug": "kobe",
		"title": "KOBE",
		
		"items" : [{
			"id": 4310,
			"slug": "daimaru",
			"title": "DAIMARU KOBE",
			"store": true,
			
			"street": "CHUO",
			"streetnumber": "31-1 AKASHIMACHI CHUO-KU KOBE CITY HYOGO<br />BLOCK 31",
			"postcode": "650 - 0037",
			"city": "KOBE",
			
			"phone": "+ 81 7 8331 1801",
			"openingtimes": "MONDAY TO SUNDAY: 11:00AM – 08:00PM",
						
			"latlong": "34.734737,135.30797"
		}
		]

		
		
	},{
		"id": 4400,
		"slug": "yokohama",
		"title": "YOKOHAMA",
		
		"items" : [{
			"id": 4410,
			"slug": "takashimaya-yokohama",
			"title": "TAKASHIMAYA",
			"store": true,
			
			"street": "NISHI",
			"streetnumber": "1 – 6 – 31 MINAMISAIWAI, NISHI – KU YOKOHAMA CITY",
			"postcode": "220 – 8601",
			"city": "YOKOHAMA",
			
			"phone": "+ 81 4 5320 5672",
			"openingtimes": "MONDAY TO SUNDAY: 11:00AM – 08:00PM",
						
			"latlong": "35.465775,139.62061"
		}
		]

		
		
	},{
		"id": 4500,
		"slug": "nagoya",
		"title": "NAGOYA",
		
		"items" : [{
			"id": 4510,
			"slug": "mitsukoshi-nagoya",
			"title": "MITSUKOSHI NAGOYA",
			"store": true,
			
			"street": "NAKA",
			"streetnumber": "3 – 5 – 1 SAKAE, NAKA – KU<br />NAGOYA CITY",
			"postcode": "460 – 8669",
			"city": "AICHI",
			
			"phone": "+ 81 5 2262 0855",
			"openingtimes": "MONDAY TO SUNDAY: 10:00AM – 08:00PM",
						
			"latlong": "35.168308,136.9077"
		},{
			"id": 4520,
			"slug": "takashimaya-nagoya",
			"title": "TAKASHIMAYA NAGOYA",
			"store": true,
			
			"street": "NAKAMURA",
			"streetnumber": "1 – 1 – 4 MEIEKI, NAKAMURA – KU<br />NAGOYA CITY",
			"postcode": "460 – 6001",
			"city": "AICHI",
			
			"phone": "+ 81 5 2583 6275",
			"openingtimes": "MONDAY TO SUNDAY: 10:00AM – 08:00PM",
						
			"latlong": "35.171299,136.88264"
		}
		]

		
		
	},{
		"id": 4600,
		"slug": "kyoto",
		"title": "KYOTO",
		
		"items" : [{
			"id": 4610,
			"slug": "takashimaya-kyoto",
			"title": "TAKASHIMAYA KYOTO",
			"store": true,
			
			"street": "SHIMOGYO",
			"streetnumber": "52 NISHIIRU SHINCHO, KAWARAMACHI, SHIJO – TORI<br />SHIMOGYO – KU",
			"postcode": "600 – 8520",
			"city": "KYOTO",
			
			"phone": "+ 81 7 5254 0328",
			"openingtimes": "MONDAY TO SUNDAY: 10:00AM – 08:00PM",
						
			"latlong": "35.003548,135.76894"
		},{
			"id": 4620,
			"slug": "isetan-kyoto",
			"title": "ISETAN KYOTO",
			"store": true,
			
			"street": "SHIMOGYO",
			"streetnumber": "HIGASHI SHIOKOJICHO, SHIOKOJISAGARU, KARASUMA – DORI<br />SHIMOGYO – KU",
			"postcode": "600 – 8555",
			"city": "KYOTO",
			
			"phone": "+ 81 7 5353 2137",
			"openingtimes": "MONDAY TO SUNDAY: 10:00AM – 08:00PM",
						
			"latlong": "34.98584,135.75764"
		}
		]

		
		
	},{
		"id": 4700,
		"slug": "matsuyama",
		"title": "MATSUYAMA",
		
		"items" : [{
			"id": 4710,
			"slug": "takashimaya-matsumaya",
			"title": "TAKASHIMAYA MATSUMAYA",
			"store": true,
			
			"street": "MINATOMACHI",
			"streetnumber": "5 – 1 – 1 MINATOMACHI<br />MATSUYAMA CITY",
			"postcode": "790 – 8587",
			"city": "EHIME",
			
			"phone": "+ 81 8 9948 2648",
			"openingtimes": "MONDAY TO SUNDAY: 10:00AM – 07:00PM",
						
			"latlong": "33.835659,132.76315"
		}
		]

		
		
	},{
		"id": 4800,
		"slug": "osaka",
		"title": "OSAKA",
		
		"items" : [{
			"id": 4810,
			"slug": "daimaru-shinsaibashi",
			"title": "DAIMARU SHINSAIBASHI",
			"store": true,
			
			"street": "CHUO",
			"streetnumber": "1 – 7 – 1 SHINSAIBASHISUJI, CHUO – KU",
			"postcode": "542 – 8501",
			"city": "OSAKA",
			
			"phone": "+ 81 6 6258 8486",
			"openingtimes": "MONDAY TO SUNDAY: 10:00AM – 08:30PM",
						
			"latlong": "34.673149,135.50096"
		},{
			"id": 4820,
			"slug": "takashimaya-osaka",
			"title": "TAKASHIMAYA OSAKA",
			"store": true,
			
			"street": "CHUO",
			"streetnumber": "5 – 1 – 5 NANBA, CHUO – KU",
			"postcode": "542 – 8510",
			"city": "OSAKA",
			
			"phone": "+ 81 6 6631 0474",
			"openingtimes": "MONDAY TO SUNDAY: 10:00AM – 08:00PM",
						
			"latlong": "34.664555,135.50075"
		},{
			"id": 4830,
			"slug": "hankyu-umeda",
			"title": "HANKYU UMEDA",
			"store": true,
			
			"street": "KITA",
			"streetnumber": "8 – 7, KAKUDA-CHO, KITA – KU",
			"postcode": "530 – 8350",
			"city": "OSAKA",
			
			"phone": "+ 81 6 6313 7373",
			"openingtimes": "MONDAY, TUESDAY: 10:00AM – 08:00PM<br />WEDNESDAY TO SATURDAY: 10:00AM – 09:00PM<br />SUNDAY: 10:00AM – 08:00PM",
						
			"latlong": "34.702866,135.49849"
		}
		]

		
		
	},{
		"id": 4900,
		"slug": "fukuoka",
		"title": "FUKUOKA",
		
		"items" : [{
			"id": 4910,
			"slug": "iwataya-fukuoka",
			"title": "IWATAYA FUKUOKA",
			"store": true,
			
			"street": "CHUO",
			"streetnumber": "2 – 5 – 35 TENJIN, CHUO – KU",
			"postcode": "810 – 8680",
			"city": "FUKUOKA",
			
			"phone": "+ 81 9 2723 0340",
			"openingtimes": "MONDAY TO SUNDAY: 10:00AM – 08:00PM",
						
			"latlong": "33.590355,130.40172"
		}
		]

		
		
	},{
		"id": 41000,
		"slug": "sapporo",
		"title": "SAPPORO",
		
		"items" : [{
			"id": 41010,
			"slug": "maruiimai-sapporo",
			"title": "MARUIIMAI SAPPORO",
			"store": true,
			
			"street": "CHUO",
			"streetnumber": "2 – 11 MINAMI ICHIJO NISHI, CHUO – KU<br />SAPPORO CITY",
			"postcode": "060-8667",
			"city": "HOKKAIDO",
			
			"phone": "+ 81 1 1205 2485",
			"openingtimes": "Monday to Saturday: 10:00AM – 08:00PM<br />SUNDAY: 10:00AM – 07:30PM",
						
			"latlong": "33.590355,130.40172"
		}
		]

		
		
	}
	
	]

	
	
	
	
},


{

	"id": 5000,
	"slug": "middle-east",
	"title": "Middle East",
	"length": 4,
	
	
	"items" : [{
		"id": 5100,
		"slug": "uae",
		"title": "UNITED ARAB EMIRATES",
			
		"items" : [{
			"id": 5110,
			"slug": "dubai",
			"title": "DUBAI",
			
			"items" : [{
				"id": 5111,
				"slug": "mall-of-the-emirates",
				"title": "C&eacute;line store",
				"store": true,
				
				"street": "MALL OF THE EMIRATES",
				"streetnumber": "MALL OF THE EMIRATES, LEVEL 1",
				"postcode": "",
				"city": "DUBAI",
				
				"phone": "+ 971 4341 0585",
				"openingtimes": "MONDAY, TUESDAY, WEDNESDAY, SATURDAY: 10:00AM – 10:00PM<br />THURSDAY, FRIDAY: 10:00AM – 12:00AM",
								
				"latlong": "25.121511,55.200535"
			}
			]
			
			
		}
		]
		
		
	}, {
		"id": 5200,
		"slug": "qatar",
		"title": "STATE OF QATAR",
			
		"items" : [{
			"id": 5210,
			"slug": "doha",
			"title": "DOHA",
			
			"items" : [{
				"id": 5211,
				"slug": "villago-mall",
				"title": "C&eacute;line store",
				"store": true,
				
				"street": "VILLAGIO MALL",
				"streetnumber": "VILLAGGIO MALL<br />LUXURY EXTENSION",
				"postcode": "",
				"city": "DOHA",
				
				"phone": "+ 974 4413 4763",
				"openingtimes": "MONDAY, TUESDAY, WEDNESDAY, THURSDAY, SATURDAY, SUNDAY: 10:00AM – 12:00AM & 05:00PM – 10:00PM<br />FRIDAY: 05:00PM – 10:00PM",
								
				"latlong": "25.256992,51.443565"
			}
			]
			
			
		}
		]
		
		
	}, {
		"id": 5300,
		"slug": "saudi-arabia",
		"title": "SAUDI ARABIA",
			
		"items" : [{
			"id": 5310,
			"slug": "riyadh",
			"title": "RIYADH",
			
			"items" : [{
				"id": 5311,
				"slug": "centria-center",
				"title": "C&eacute;line store",
				"store": true,
				
				"street": "CENTRIA CENTER",
				"streetnumber": "CENTRIA MALL, OULAYA STREET",
				"postcode": "",
				"city": "RIYADH",
				
				"phone": "+ 966 2261 588",
				"openingtimes": "MONDAY, TUESDAY, WEDNESDAY, THURSDAY, SATURDAY, SUNDAY: 10:00AM – 12:00AM & 05:00PM – 10:00PM<br />FRIDAY: 05:00PM – 10:00PM",
								
				"latlong": "21.543486,39.172989"
			}
			]
			
			
		},{
			"id": 5320,
			"slug": "jeddah",
			"title": "JEDDAH",
			
			"items" : [{
				"id": 5321,
				"slug": "khayat-center",
				"title": "C&eacute;line store",
				"store": true,
				
				"street": "KHAYAT CENTER",
				"streetnumber": "KHAYAT CENTER<br />TAHLIA STREET",
				"postcode": "",
				"city": "JEDDAH",
				
				"phone": "+ 966 2261 588",
				"openingtimes": "MONDAY, TUESDAY, WEDNESDAY, THURSDAY, SATURDAY, SUNDAY: 10:00AM – 12:00AM & 05:00PM – 10:00PM<br />FRIDAY: 05:00PM – 10:00PM",
								
				"latlong": "21.543486,39.172989"
			}
			]
			
			
		}
		]
		
		
	}, {
		"id": 5400,
		"slug": "kuwait",
		"title": "KUWAIT",
			
		"items" : [{
			"id": 5410,
			"slug": "kuwait-city",
			"title": "KUWAIT CITY",
			
			"items" : [{
				"id": 5411,
				"slug": "prestige",
				"title": "C&eacute;line store",
				"store": true,
				
				"street": "PRESTIGE, THE AVENUES",
				"streetnumber": "PRESTIGE, THE AVENUES<br />PHASE III PRESTIGE AREA, FIFTH RING RD",
				"postcode": "",
				"city": "KUWAIT CITY",
				
				"phone": "+ 965 22200582",
				"openingtimes": "MONDAY TO THURSDAY, SATURDAY, SUNDAY: 10:00AM – 10:00PM<br />FRIDAY: 05:00PM – 10:00PM",
								
				"latlong": "29.303301,47.935398"
			}
			]
			
			
		}
		]
		
		
	}, {
		"id": 5500,
		"slug": "bahrain",
		"title": "BAHRAIN",
			
		"items" : [{
			"id": 5510,
			"slug": "kuwait-city",
			"title": "KUWAIT CITY",
			
			"items" : [{
				"id": 5511,
				"slug": "saks",
				"title": "SAKS FIFTH AVENUE",
				"store": true,
				
				"street": "BAHRAIN CITY CENTER",
				"streetnumber": "BAHRAIN CITY CENTER",
				"postcode": "",
				"city": "MANAMA",
				
				"phone": "+973 17172000 EXT. 7501",
				"openingtimes": "MONDAY TO THURSDAY, SATURDAY, SUNDAY: 10:00AM – 12:00AM & 05:00PM – 10:00PM<br />FRIDAY: 05:00PM – 10:00PM",
								
				"latlong": "26.232069,50.554447"
			}
			]
			
			
		}
		]
		
		
	}, {
		"id": 5600,
		"slug": "lebanon",
		"title": "LEBANON",
			
		"items" : [{
			"id": 5610,
			"slug": "beirut",
			"title": "BEIRUT",
			
			"items" : [{
				"id": 5611,
				"slug": "mourtane-street",
				"title": "C&eacute;line store",
				"store": true,
				
				"street": "MOURTANE STREET",
				"streetnumber": "141 EL MOURTANE STREET, 2ND FLOOR",
				"postcode": "",
				"city": "BEIRUT",
				
				"phone": "+ 961 199 1111",
				"openingtimes": "Monday to Saturday: 10:00AM – 10:00PM<br />SUNDAY: 12:30 PM – 09:00PM",
								
				"latlong": "33.88863,35.49548"
			}
			]
			
			
		}
		]
		
		
	}
	]

	
	
	
	
}






]